{"type":"FeatureCollection","features":[{"type":"Feature","properties":{"Title":"Eko Atlantic"},"geometry":{"type":"Point","coordinates":[3.411978961,6.40991944]}},{"type":"Feature","properties":{"Title":"Akoncity"},"geometry":{"type":"Point","coordinates":[-16.890875,14.267421]}},{"type":"Feature","properties":{"Title":"Centenary City"},"geometry":{"type":"Point","coordinates":[7.278447215,8.943606411]}},{"type":"Feature","properties":{"Title":"Konza Technopolis"},"geometry":{"type":"Point","coordinates":[37.18478486,-1.689150493]}},{"type":"Feature","properties":{"Title":"Diamniadio Lake City"},"geometry":{"type":"Point","coordinates":[-17.178889,14.721944]}},{"type":"Feature","properties":{"Title":"Tatu City"},"geometry":{"type":"Point","coordinates":[36.90680724,-1.158177756]}},{"type":"Feature","properties":{"Title":"Alaro City"},"geometry":{"type":"Point","coordinates":[3.939548614,6.561208862]}},{"type":"Feature","properties":{"Title":"King City"},"geometry":{"type":"Point","coordinates":[-1.786983,4.955474]}},{"type":"Feature","properties":{"Title":"Mohammed VI Green City"},"geometry":{"type":"Point","coordinates":[-7.935722079,32.21849847]}},{"type":"Feature","properties":{"Title":"La Cite Du Fleuve"},"geometry":{"type":"Point","coordinates":[15.353777,-4.365939]}}]}